<?xml version="1.0" encoding="UTF-8"?>
<kml xmlns="http://www.opengis.net/kml/2.2">
<Document>
<name>Beer 2</name>
<description><![CDATA[From <a href="https://www.openbible.info/geo/ancient/a520374/beer-2">OpenBible.info</a>]]></description>
<Style id="landpoint">
	<IconStyle>
		<scale>0.75</scale>
		<Icon><href>https://maps.google.com/mapfiles/kml/paddle/red-circle.png</href></Icon>
	</IconStyle>
</Style>
<Style id="waterpoint">
	<IconStyle>
		<scale>0.75</scale>
		<Icon><href>https://maps.google.com/mapfiles/kml/paddle/blu-circle.png</href></Icon>
	</IconStyle>
</Style>
<Style id="landrepresentativepoint">
	<IconStyle>
		<scale>0.75</scale>
		<Icon><href>https://maps.google.com/mapfiles/kml/paddle/wht-circle.png</href></Icon>
	</IconStyle>
</Style>
<Style id="waterrepresentativepoint">
	<IconStyle>
		<scale>0.75</scale>
		<Icon><href>https://maps.google.com/mapfiles/kml/paddle/blu-circle.png</href></Icon>
	</IconStyle>
</Style>
<Style id="landisobands">
	<LineStyle>
		<color>80333333</color>
		<width>1</width>
	</LineStyle>
	<PolyStyle>
		<color>80ffffff</color>
		<fill>1</fill>
		<outline>0</outline>
	</PolyStyle>
</Style>
<Style id="waterisobands">
	<LineStyle>
		<color>cccc0000</color>
		<width>1</width>
	</LineStyle>
	<PolyStyle>
		<color>50cc0000</color>
		<fill>1</fill>
		<outline>1</outline>
	</PolyStyle>
</Style>
<Style id="region">
	<LineStyle>
		<color>80333333</color>
		<width>1</width>
	</LineStyle>
	<PolyStyle>
		<color>33333333</color>
		<fill>1</fill>
		<outline>1</outline>
	</PolyStyle>
</Style>
<Style id="water">
	<LineStyle>
		<color>cccc0000</color>
		<width>2</width>
	</LineStyle>
	<PolyStyle>
		<color>80cc0000</color>
		<fill>1</fill>
		<outline>1</outline>
	</PolyStyle>
</Style>
<Style id="path">
	<LineStyle>
		<color>ff333333</color>
		<width>1</width>
	</LineStyle>
</Style>
<Folder>
	<name>Beer 2</name>
	<description><![CDATA[Judg <a href="https://www.biblegateway.com/passage/?search=Judg.9.21&amp;version=ESV">9:21</a>]]></description>
	<Placemark>
		<name>Beer 2 / El Bira</name>
		<styleUrl>#landpoint</styleUrl>
		<Point>
			<coordinates>35.50415,32.60823</coordinates>
		</Point>
	</Placemark>
	<Placemark>
		<name>Beer 2 / Al Bira</name>
		<description>another name for Beeroth</description>
		<styleUrl>#landpoint</styleUrl>
		<Point>
			<coordinates>35.214958,31.905142</coordinates>
		</Point>
	</Placemark>
	<Placemark>
		<name>Beer 2 / Khirbet el Burj</name>
		<description>another name for Beeroth</description>
		<styleUrl>#landpoint</styleUrl>
		<Point>
			<coordinates>35.1872,31.82383</coordinates>
		</Point>
	</Placemark>
	<Placemark>
		<name>Beer 2 / Nabi Samwil</name>
		<description>another name for Beeroth</description>
		<styleUrl>#landpoint</styleUrl>
		<Point>
			<coordinates>35.18015,31.832733</coordinates>
		</Point>
	</Placemark>
	<Placemark>
		<name>Beer 2 / Ras et Tahuneh</name>
		<description>another name for Beeroth</description>
		<styleUrl>#landpoint</styleUrl>
		<Point>
			<coordinates>35.2117,31.90879</coordinates>
		</Point>
	</Placemark>
	<Placemark>
		<name>Beer 2 / Khirbet Raddana</name>
		<description>another name for Beeroth</description>
		<styleUrl>#landpoint</styleUrl>
		<Point>
			<coordinates>35.202,31.9121</coordinates>
		</Point>
	</Placemark>
	<Placemark>
		<name>Beer 2 / Tell en Nasbeh</name>
		<description>another name for Beeroth</description>
		<styleUrl>#landpoint</styleUrl>
		<Point>
			<coordinates>35.216417,31.885136</coordinates>
		</Point>
	</Placemark>
	<Placemark>
		<name>Beer 2 / El Jib</name>
		<description>another name for Beeroth</description>
		<styleUrl>#landpoint</styleUrl>
		<Point>
			<coordinates>35.183351,31.847451</coordinates>
		</Point>
	</Placemark>
	<Placemark>
		<name>Beer 2 / Biddu</name>
		<description>another name for Beeroth</description>
		<styleUrl>#landpoint</styleUrl>
		<Point>
			<coordinates>35.14832,31.83392</coordinates>
		</Point>
	</Placemark>
</Folder>
</Document>
</kml>