<?xml version="1.0" encoding="UTF-8"?>
<kml xmlns="http://www.opengis.net/kml/2.2">
<Document>
<name>Gilgal 4</name>
<description><![CDATA[From <a href="https://www.openbible.info/geo/ancient/a84a509/gilgal-4">OpenBible.info</a>; some data © OpenStreetMap contributors]]></description>
<Style id="landpoint">
	<IconStyle>
		<scale>0.75</scale>
		<Icon><href>https://maps.google.com/mapfiles/kml/paddle/red-circle.png</href></Icon>
	</IconStyle>
</Style>
<Style id="waterpoint">
	<IconStyle>
		<scale>0.75</scale>
		<Icon><href>https://maps.google.com/mapfiles/kml/paddle/blu-circle.png</href></Icon>
	</IconStyle>
</Style>
<Style id="landrepresentativepoint">
	<IconStyle>
		<scale>0.75</scale>
		<Icon><href>https://maps.google.com/mapfiles/kml/paddle/wht-circle.png</href></Icon>
	</IconStyle>
</Style>
<Style id="waterrepresentativepoint">
	<IconStyle>
		<scale>0.75</scale>
		<Icon><href>https://maps.google.com/mapfiles/kml/paddle/blu-circle.png</href></Icon>
	</IconStyle>
</Style>
<Style id="landisobands">
	<LineStyle>
		<color>80333333</color>
		<width>1</width>
	</LineStyle>
	<PolyStyle>
		<color>80ffffff</color>
		<fill>1</fill>
		<outline>0</outline>
	</PolyStyle>
</Style>
<Style id="waterisobands">
	<LineStyle>
		<color>cccc0000</color>
		<width>1</width>
	</LineStyle>
	<PolyStyle>
		<color>50cc0000</color>
		<fill>1</fill>
		<outline>1</outline>
	</PolyStyle>
</Style>
<Style id="region">
	<LineStyle>
		<color>80333333</color>
		<width>1</width>
	</LineStyle>
	<PolyStyle>
		<color>33333333</color>
		<fill>1</fill>
		<outline>1</outline>
	</PolyStyle>
</Style>
<Style id="water">
	<LineStyle>
		<color>cccc0000</color>
		<width>2</width>
	</LineStyle>
	<PolyStyle>
		<color>80cc0000</color>
		<fill>1</fill>
		<outline>1</outline>
	</PolyStyle>
</Style>
<Style id="path">
	<LineStyle>
		<color>ff333333</color>
		<width>1</width>
	</LineStyle>
</Style>
<Folder>
	<name>Gilgal 4</name>
	<description><![CDATA[Deut <a href="https://www.biblegateway.com/passage/?search=Deut.11.30&amp;version=ESV">11:30</a>]]></description>
	<Placemark>
		<name>Gilgal 4 / Khirbet el Mefjir</name>
		<description>another name for Gilgal 2</description>
		<styleUrl>#landpoint</styleUrl>
		<Point>
			<coordinates>35.459969,31.881883</coordinates>
		</Point>
	</Placemark>
	<Placemark>
		<name>Gilgal 4 / Jiljilyya</name>
		<description>another name for Gilgal 2</description>
		<styleUrl>#landpoint</styleUrl>
		<Point>
			<coordinates>35.225,32.030556</coordinates>
		</Point>
	</Placemark>
	<Placemark>
		<name>Gilgal 4 / Khirbet en Nitleh</name>
		<description>another name for Gilgal 2</description>
		<styleUrl>#landpoint</styleUrl>
		<Point>
			<coordinates>35.48747,31.85032</coordinates>
		</Point>
	</Placemark>
	<Placemark>
		<name>Gilgal 4 / Suwwanet eth Thaniya</name>
		<description>another name for Gilgal 2</description>
		<styleUrl>#landpoint</styleUrl>
		<Point>
			<coordinates>35.45567,31.88161</coordinates>
		</Point>
	</Placemark>
	<Placemark>
		<name>Gilgal 4 / El ’Unuq</name>
		<description>another name for Gilgal 2</description>
		<styleUrl>#landpoint</styleUrl>
		<Point>
			<coordinates>35.3707,32.24925</coordinates>
		</Point>
	</Placemark>
	<Placemark>
		<name>Gilgal 4 / Tell el Jurn</name>
		<description>another name for Gilgal 2</description>
		<styleUrl>#landpoint</styleUrl>
		<Point>
			<coordinates>35.45883,31.87394</coordinates>
		</Point>
	</Placemark>
	<Placemark>
		<name>Gilgal 4 / Bedhat esh Sha’ab</name>
		<description>another name for Gilgal 2</description>
		<styleUrl>#landpoint</styleUrl>
		<Point>
			<coordinates>35.515486,32.159929</coordinates>
		</Point>
	</Placemark>
	<Placemark>
		<name>Gilgal 4 / Khirbet el Mefjir</name>
		<description>another name for Gilgal 1</description>
		<styleUrl>#landpoint</styleUrl>
		<Point>
			<coordinates>35.459969,31.881883</coordinates>
		</Point>
	</Placemark>
	<Placemark>
		<name>Gilgal 4 / Khirbet en Nitleh</name>
		<description>another name for Gilgal 1</description>
		<styleUrl>#landpoint</styleUrl>
		<Point>
			<coordinates>35.48747,31.85032</coordinates>
		</Point>
	</Placemark>
	<Placemark>
		<name>Gilgal 4 / El ’Unuq</name>
		<description>another name for Gilgal 1</description>
		<styleUrl>#landpoint</styleUrl>
		<Point>
			<coordinates>35.3707,32.24925</coordinates>
		</Point>
	</Placemark>
	<Placemark>
		<name>Gilgal 4 / Suwwanet eth Thaniya</name>
		<description>another name for Gilgal 1</description>
		<styleUrl>#landpoint</styleUrl>
		<Point>
			<coordinates>35.45567,31.88161</coordinates>
		</Point>
	</Placemark>
	<Placemark>
		<name>Gilgal 4 / Tell el Jurn</name>
		<description>another name for Gilgal 1</description>
		<styleUrl>#landpoint</styleUrl>
		<Point>
			<coordinates>35.45883,31.87394</coordinates>
		</Point>
	</Placemark>
	<Placemark>
		<name>Gilgal 4 / Bedhat esh Sha’ab</name>
		<description>another name for Gilgal 1</description>
		<styleUrl>#landpoint</styleUrl>
		<Point>
			<coordinates>35.515486,32.159929</coordinates>
		</Point>
	</Placemark>
	<Placemark>
		<name>Gilgal 4 / Khirbet Ibn Naser</name>
		<styleUrl>#landpoint</styleUrl>
		<Point>
			<coordinates>35.30698,32.19836</coordinates>
		</Point>
	</Placemark>
	<Placemark>
		<name>Gilgal 4 / El ’Unuq</name>
		<styleUrl>#landpoint</styleUrl>
		<Point>
			<coordinates>35.3707,32.24925</coordinates>
		</Point>
	</Placemark>
</Folder>
</Document>
</kml>