<?xml version="1.0" encoding="UTF-8"?>
<kml xmlns="http://www.opengis.net/kml/2.2">
<Document>
<name>Ain 1</name>
<description><![CDATA[From <a href="https://www.openbible.info/geo/ancient/a89511f/ain-1">OpenBible.info</a>; some data Â© OpenStreetMap contributors]]></description>
<Style id="landpoint">
	<IconStyle>
		<scale>0.75</scale>
		<Icon><href>https://maps.google.com/mapfiles/kml/paddle/red-circle.png</href></Icon>
	</IconStyle>
</Style>
<Style id="waterpoint">
	<IconStyle>
		<scale>0.75</scale>
		<Icon><href>https://maps.google.com/mapfiles/kml/paddle/blu-circle.png</href></Icon>
	</IconStyle>
</Style>
<Style id="landrepresentativepoint">
	<IconStyle>
		<scale>0.75</scale>
		<Icon><href>https://maps.google.com/mapfiles/kml/paddle/wht-circle.png</href></Icon>
	</IconStyle>
</Style>
<Style id="waterrepresentativepoint">
	<IconStyle>
		<scale>0.75</scale>
		<Icon><href>https://maps.google.com/mapfiles/kml/paddle/blu-circle.png</href></Icon>
	</IconStyle>
</Style>
<Style id="landisobands">
	<LineStyle>
		<color>80333333</color>
		<width>1</width>
	</LineStyle>
	<PolyStyle>
		<color>80ffffff</color>
		<fill>1</fill>
		<outline>0</outline>
	</PolyStyle>
</Style>
<Style id="waterisobands">
	<LineStyle>
		<color>cccc0000</color>
		<width>1</width>
	</LineStyle>
	<PolyStyle>
		<color>50cc0000</color>
		<fill>1</fill>
		<outline>1</outline>
	</PolyStyle>
</Style>
<Style id="region">
	<LineStyle>
		<color>80333333</color>
		<width>1</width>
	</LineStyle>
	<PolyStyle>
		<color>33333333</color>
		<fill>1</fill>
		<outline>1</outline>
	</PolyStyle>
</Style>
<Style id="water">
	<LineStyle>
		<color>cccc0000</color>
		<width>2</width>
	</LineStyle>
	<PolyStyle>
		<color>80cc0000</color>
		<fill>1</fill>
		<outline>1</outline>
	</PolyStyle>
</Style>
<Style id="path">
	<LineStyle>
		<color>ff333333</color>
		<width>1</width>
	</LineStyle>
</Style>
<Folder>
	<name>Ain 1</name>
	<description><![CDATA[Num <a href="https://www.biblegateway.com/passage/?search=Num.34.11&amp;version=ESV">34:11</a>]]></description>
	<Placemark>
		<name>Ain 1 / Khirbet Ayun</name>
		<styleUrl>#landpoint</styleUrl>
		<Point>
			<coordinates>35.66791,32.71865</coordinates>
		</Point>
	</Placemark>
	<Placemark>
		<name>Ain 1 / Khirbet Dufnah</name>
		<styleUrl>#landpoint</styleUrl>
		<Point>
			<coordinates>35.636569,33.238681</coordinates>
		</Point>
	</Placemark>
	<Placemark>
		<name>Ain 1 / Ain ez Zarqa</name>
		<styleUrl>#landpoint</styleUrl>
		<Point>
			<coordinates>36.373056,34.352222</coordinates>
		</Point>
	</Placemark>
	<Placemark>
		<name>Ain 1 / Banias</name>
		<styleUrl>#landpoint</styleUrl>
		<Point>
			<coordinates>35.693333,33.246111</coordinates>
		</Point>
	</Placemark>
	<Placemark>
		<name>Ain 1 / Tel Dan</name>
		<description>another name for Dan</description>
		<styleUrl>#landpoint</styleUrl>
		<Point>
			<coordinates>35.652,33.249</coordinates>
		</Point>
	</Placemark>
	<Placemark>
		<name>Ain 1 / Tell Dibbine</name>
		<description>another name for Ijon</description>
		<styleUrl>#landpoint</styleUrl>
		<Point>
			<coordinates>35.59,33.345278</coordinates>
		</Point>
	</Placemark>
	<Placemark>
		<name>Ain 1 / Marjaayoun</name>
		<description>another name for Ijon</description>
		<styleUrl>#landpoint</styleUrl>
		<Point>
			<coordinates>35.5921,33.3611</coordinates>
		</Point>
	</Placemark>
</Folder>
</Document>
</kml>