<?xml version="1.0" encoding="UTF-8"?>
<kml xmlns="http://www.opengis.net/kml/2.2">
<Document>
<name>Rehob 2</name>
<description><![CDATA[From <a href="https://www.openbible.info/geo/ancient/aaf5fef/rehob-2">OpenBible.info</a>; some data © OpenStreetMap contributors]]></description>
<Style id="landpoint">
	<IconStyle>
		<scale>0.75</scale>
		<Icon><href>https://maps.google.com/mapfiles/kml/paddle/red-circle.png</href></Icon>
	</IconStyle>
</Style>
<Style id="waterpoint">
	<IconStyle>
		<scale>0.75</scale>
		<Icon><href>https://maps.google.com/mapfiles/kml/paddle/blu-circle.png</href></Icon>
	</IconStyle>
</Style>
<Style id="landrepresentativepoint">
	<IconStyle>
		<scale>0.75</scale>
		<Icon><href>https://maps.google.com/mapfiles/kml/paddle/wht-circle.png</href></Icon>
	</IconStyle>
</Style>
<Style id="waterrepresentativepoint">
	<IconStyle>
		<scale>0.75</scale>
		<Icon><href>https://maps.google.com/mapfiles/kml/paddle/blu-circle.png</href></Icon>
	</IconStyle>
</Style>
<Style id="landisobands">
	<LineStyle>
		<color>80333333</color>
		<width>1</width>
	</LineStyle>
	<PolyStyle>
		<color>80ffffff</color>
		<fill>1</fill>
		<outline>0</outline>
	</PolyStyle>
</Style>
<Style id="waterisobands">
	<LineStyle>
		<color>cccc0000</color>
		<width>1</width>
	</LineStyle>
	<PolyStyle>
		<color>50cc0000</color>
		<fill>1</fill>
		<outline>1</outline>
	</PolyStyle>
</Style>
<Style id="region">
	<LineStyle>
		<color>80333333</color>
		<width>1</width>
	</LineStyle>
	<PolyStyle>
		<color>33333333</color>
		<fill>1</fill>
		<outline>1</outline>
	</PolyStyle>
</Style>
<Style id="water">
	<LineStyle>
		<color>cccc0000</color>
		<width>2</width>
	</LineStyle>
	<PolyStyle>
		<color>80cc0000</color>
		<fill>1</fill>
		<outline>1</outline>
	</PolyStyle>
</Style>
<Style id="path">
	<LineStyle>
		<color>ff333333</color>
		<width>1</width>
	</LineStyle>
</Style>
<Folder>
	<name>Rehob 2</name>
	<description><![CDATA[Josh <a href="https://www.biblegateway.com/passage/?search=Josh.19.28&amp;version=ESV">19:28</a>]]></description>
	<Placemark>
		<name>Rehob 2 / Tell Bir el Gharbi</name>
		<description>another name for Rehob 3</description>
		<styleUrl>#landpoint</styleUrl>
		<Point>
			<coordinates>35.169444,32.901389</coordinates>
		</Point>
	</Placemark>
	<Placemark>
		<name>Rehob 2 / Khirbet Da‘uk</name>
		<description>another name for Rehob 3</description>
		<styleUrl>#landpoint</styleUrl>
		<Point>
			<coordinates>35.122,32.8718</coordinates>
		</Point>
	</Placemark>
	<Placemark>
		<name>Rehob 2 / Tell el Balat</name>
		<styleUrl>#landpoint</styleUrl>
		<Point>
			<coordinates>35.290833,33.114444</coordinates>
		</Point>
	</Placemark>
	<Placemark>
		<name>Rehob 2 / Tell er Rahb</name>
		<styleUrl>#landpoint</styleUrl>
		<Point>
			<coordinates>35.325278,33.081667</coordinates>
		</Point>
	</Placemark>
	<Placemark>
		<name>Rehob 2 / Horbat Kenesiyya</name>
		<styleUrl>#landpoint</styleUrl>
		<Point>
			<coordinates>35.13835,33.06571</coordinates>
		</Point>
	</Placemark>
	<Placemark>
		<name>Rehob 2 / Tell Bir el Gharbi</name>
		<styleUrl>#landpoint</styleUrl>
		<Point>
			<coordinates>35.169444,32.901389</coordinates>
		</Point>
	</Placemark>
	<Placemark>
		<name>Rehob 2 / in the Beqaa Valley</name>
		<description>another name for Rehob 1</description>
		<styleUrl>#region</styleUrl>
		<Polygon>
			<tesselate>1</tesselate>
			<outerBoundaryIs>
				<LinearRing>
					<coordinates>35.701387,33.543868 35.795539,33.517671 36.637128,34.366186 36.405133,34.475965 35.701387,33.543868</coordinates>
				</LinearRing>
			</outerBoundaryIs>
		</Polygon>
	</Placemark>
	<Placemark>
		<name>Rehob 2 / in the Beqaa Valley</name>
		<description>another name for Rehob 1</description>
		<styleUrl>#landrepresentativepoint</styleUrl>
		<Point>
			<coordinates>36.145278,34.008889</coordinates>
		</Point>
	</Placemark>
	<Placemark>
		<name>Rehob 2 / Banias</name>
		<description>another name for Rehob 1</description>
		<styleUrl>#landpoint</styleUrl>
		<Point>
			<coordinates>35.693333,33.246111</coordinates>
		</Point>
	</Placemark>
	<Placemark>
		<name>Rehob 2 / in the upper Huleh Valley</name>
		<description>another name for Rehob 1</description>
		<styleUrl>#region</styleUrl>
		<Polygon>
			<tesselate>1</tesselate>
			<outerBoundaryIs>
				<LinearRing>
					<coordinates>35.681022,33.122783 35.715166,33.376822 35.629739,33.39783 35.536779,33.187815 35.681022,33.122783</coordinates>
				</LinearRing>
			</outerBoundaryIs>
		</Polygon>
	</Placemark>
	<Placemark>
		<name>Rehob 2 / in the upper Huleh Valley</name>
		<description>another name for Rehob 1</description>
		<styleUrl>#landrepresentativepoint</styleUrl>
		<Point>
			<coordinates>35.652,33.249</coordinates>
		</Point>
	</Placemark>
	<Placemark>
		<name>Rehob 2 / Hunin</name>
		<description>another name for Rehob 1</description>
		<styleUrl>#landpoint</styleUrl>
		<Point>
			<coordinates>35.544444,33.221111</coordinates>
		</Point>
	</Placemark>
	<Placemark>
		<name>Rehob 2 / Tel Dan</name>
		<description>another name for Rehob 1</description>
		<styleUrl>#landpoint</styleUrl>
		<Point>
			<coordinates>35.652,33.249</coordinates>
		</Point>
	</Placemark>
	<Placemark>
		<name>Rehob 2 / Tell Bir el Gharbi</name>
		<description>another name for Rehob 1</description>
		<styleUrl>#landpoint</styleUrl>
		<Point>
			<coordinates>35.169444,32.901389</coordinates>
		</Point>
	</Placemark>
	<Placemark>
		<name>Rehob 2 / Khirbet Da‘uk</name>
		<description>another name for Rehob 1</description>
		<styleUrl>#landpoint</styleUrl>
		<Point>
			<coordinates>35.122,32.8718</coordinates>
		</Point>
	</Placemark>
</Folder>
</Document>
</kml>