<?xml version="1.0" encoding="UTF-8"?>
<kml xmlns="http://www.opengis.net/kml/2.2">
<Document>
<name>Nebo 2</name>
<description><![CDATA[From <a href="https://www.openbible.info/geo/ancient/accdd09/nebo-2">OpenBible.info</a>; some data © OpenStreetMap contributors]]></description>
<Style id="landpoint">
	<IconStyle>
		<scale>0.75</scale>
		<Icon><href>https://maps.google.com/mapfiles/kml/paddle/red-circle.png</href></Icon>
	</IconStyle>
</Style>
<Style id="waterpoint">
	<IconStyle>
		<scale>0.75</scale>
		<Icon><href>https://maps.google.com/mapfiles/kml/paddle/blu-circle.png</href></Icon>
	</IconStyle>
</Style>
<Style id="landrepresentativepoint">
	<IconStyle>
		<scale>0.75</scale>
		<Icon><href>https://maps.google.com/mapfiles/kml/paddle/wht-circle.png</href></Icon>
	</IconStyle>
</Style>
<Style id="waterrepresentativepoint">
	<IconStyle>
		<scale>0.75</scale>
		<Icon><href>https://maps.google.com/mapfiles/kml/paddle/blu-circle.png</href></Icon>
	</IconStyle>
</Style>
<Style id="landisobands">
	<LineStyle>
		<color>80333333</color>
		<width>1</width>
	</LineStyle>
	<PolyStyle>
		<color>80ffffff</color>
		<fill>1</fill>
		<outline>0</outline>
	</PolyStyle>
</Style>
<Style id="waterisobands">
	<LineStyle>
		<color>cccc0000</color>
		<width>1</width>
	</LineStyle>
	<PolyStyle>
		<color>50cc0000</color>
		<fill>1</fill>
		<outline>1</outline>
	</PolyStyle>
</Style>
<Style id="region">
	<LineStyle>
		<color>80333333</color>
		<width>1</width>
	</LineStyle>
	<PolyStyle>
		<color>33333333</color>
		<fill>1</fill>
		<outline>1</outline>
	</PolyStyle>
</Style>
<Style id="water">
	<LineStyle>
		<color>cccc0000</color>
		<width>2</width>
	</LineStyle>
	<PolyStyle>
		<color>80cc0000</color>
		<fill>1</fill>
		<outline>1</outline>
	</PolyStyle>
</Style>
<Style id="path">
	<LineStyle>
		<color>ff333333</color>
		<width>1</width>
	</LineStyle>
</Style>
<Folder>
	<name>Nebo 2</name>
	<description><![CDATA[Ezra <a href="https://www.biblegateway.com/passage/?search=Ezra.2.29&amp;version=ESV">2:29</a>, Neh <a href="https://www.biblegateway.com/passage/?search=Neh.7.33&amp;version=ESV">7:33</a>]]></description>
	<Placemark>
		<name>Nebo 2 / Nuba</name>
		<styleUrl>#landpoint</styleUrl>
		<Point>
			<coordinates>35.036733,31.607211</coordinates>
		</Point>
	</Placemark>
	<Placemark>
		<name>Nebo 2 / Ras el Mesharif</name>
		<description>another name for Nob</description>
		<styleUrl>#landpoint</styleUrl>
		<Point>
			<coordinates>35.244167,31.7925</coordinates>
		</Point>
	</Placemark>
	<Placemark>
		<name>Nebo 2 / Ras Umm et Tala</name>
		<description>another name for Nob</description>
		<styleUrl>#landpoint</styleUrl>
		<Point>
			<coordinates>35.242628,31.794892</coordinates>
		</Point>
	</Placemark>
	<Placemark>
		<name>Nebo 2 / Isawiya</name>
		<description>another name for Nob</description>
		<styleUrl>#landpoint</styleUrl>
		<Point>
			<coordinates>35.248333,31.798611</coordinates>
		</Point>
	</Placemark>
	<Placemark>
		<name>Nebo 2 / Et Tur</name>
		<description>another name for Nob</description>
		<styleUrl>#landpoint</styleUrl>
		<Point>
			<coordinates>35.250839,31.777619</coordinates>
		</Point>
	</Placemark>
	<Placemark>
		<name>Nebo 2 / Qu’meh</name>
		<description>another name for Nob</description>
		<styleUrl>#landpoint</styleUrl>
		<Point>
			<coordinates>35.23737,31.81337</coordinates>
		</Point>
	</Placemark>
	<Placemark>
		<name>Nebo 2 / Ras Tumeim</name>
		<description>another name for Nob</description>
		<styleUrl>#landpoint</styleUrl>
		<Point>
			<coordinates>35.25694,31.7912</coordinates>
		</Point>
	</Placemark>
	<Placemark>
		<name>Nebo 2 / French Hill</name>
		<description>another name for Nob</description>
		<styleUrl>#landpoint</styleUrl>
		<Point>
			<coordinates>35.238992,31.8057</coordinates>
		</Point>
	</Placemark>
	<Placemark>
		<name>Nebo 2 / Khirbet al Mukhayyat</name>
		<description>another name for Nebo 1</description>
		<styleUrl>#landpoint</styleUrl>
		<Point>
			<coordinates>35.74386,31.749127</coordinates>
		</Point>
	</Placemark>
	<Placemark>
		<name>Nebo 2 / Khirbet Ayun Musa</name>
		<description>another name for Nebo 1</description>
		<styleUrl>#landpoint</styleUrl>
		<Point>
			<coordinates>35.738498,31.777021</coordinates>
		</Point>
	</Placemark>
</Folder>
</Document>
</kml>