<?xml version="1.0" encoding="UTF-8"?>
<kml xmlns="http://www.opengis.net/kml/2.2">
<Document>
<name>Ain 3</name>
<description><![CDATA[From <a href="https://www.openbible.info/geo/ancient/adbc931/ain-3">OpenBible.info</a>]]></description>
<Style id="landpoint">
	<IconStyle>
		<scale>0.75</scale>
		<Icon><href>https://maps.google.com/mapfiles/kml/paddle/red-circle.png</href></Icon>
	</IconStyle>
</Style>
<Style id="waterpoint">
	<IconStyle>
		<scale>0.75</scale>
		<Icon><href>https://maps.google.com/mapfiles/kml/paddle/blu-circle.png</href></Icon>
	</IconStyle>
</Style>
<Style id="landrepresentativepoint">
	<IconStyle>
		<scale>0.75</scale>
		<Icon><href>https://maps.google.com/mapfiles/kml/paddle/wht-circle.png</href></Icon>
	</IconStyle>
</Style>
<Style id="waterrepresentativepoint">
	<IconStyle>
		<scale>0.75</scale>
		<Icon><href>https://maps.google.com/mapfiles/kml/paddle/blu-circle.png</href></Icon>
	</IconStyle>
</Style>
<Style id="landisobands">
	<LineStyle>
		<color>80333333</color>
		<width>1</width>
	</LineStyle>
	<PolyStyle>
		<color>80ffffff</color>
		<fill>1</fill>
		<outline>0</outline>
	</PolyStyle>
</Style>
<Style id="waterisobands">
	<LineStyle>
		<color>cccc0000</color>
		<width>1</width>
	</LineStyle>
	<PolyStyle>
		<color>50cc0000</color>
		<fill>1</fill>
		<outline>1</outline>
	</PolyStyle>
</Style>
<Style id="region">
	<LineStyle>
		<color>80333333</color>
		<width>1</width>
	</LineStyle>
	<PolyStyle>
		<color>33333333</color>
		<fill>1</fill>
		<outline>1</outline>
	</PolyStyle>
</Style>
<Style id="water">
	<LineStyle>
		<color>cccc0000</color>
		<width>2</width>
	</LineStyle>
	<PolyStyle>
		<color>80cc0000</color>
		<fill>1</fill>
		<outline>1</outline>
	</PolyStyle>
</Style>
<Style id="path">
	<LineStyle>
		<color>ff333333</color>
		<width>1</width>
	</LineStyle>
</Style>
<Folder>
	<name>Ain 3</name>
	<description><![CDATA[Josh <a href="https://www.biblegateway.com/passage/?search=Josh.21.16&amp;version=ESV">21:16</a>]]></description>
	<Placemark>
		<name>Ain 3 / Khirbet Asan</name>
		<description>another name for Ashan</description>
		<styleUrl>#landpoint</styleUrl>
		<Point>
			<coordinates>34.797404,31.281372</coordinates>
		</Point>
	</Placemark>
	<Placemark>
		<name>Ain 3 / Tell Beit Mirsim</name>
		<description>another name for Ashan</description>
		<styleUrl>#landpoint</styleUrl>
		<Point>
			<coordinates>34.9098,31.4558</coordinates>
		</Point>
	</Placemark>
	<Placemark>
		<name>Ain 3 / Tel Goded</name>
		<description>another name for Ashan</description>
		<styleUrl>#landpoint</styleUrl>
		<Point>
			<coordinates>34.916611,31.633361</coordinates>
		</Point>
	</Placemark>
	<Placemark>
		<name>Ain 3 / Khirbet Muleh</name>
		<description>another name for Ashan</description>
		<styleUrl>#landpoint</styleUrl>
		<Point>
			<coordinates>34.646389,31.29</coordinates>
		</Point>
	</Placemark>
	<Placemark>
		<name>Ain 3 / Khirbet Umm er Rammamin</name>
		<description>another name for Ain 2</description>
		<styleUrl>#landpoint</styleUrl>
		<Point>
			<coordinates>34.86489,31.37124</coordinates>
		</Point>
	</Placemark>
	<Placemark>
		<name>Ain 3 / Tel Halif</name>
		<description>another name for Ain 2</description>
		<styleUrl>#landpoint</styleUrl>
		<Point>
			<coordinates>34.86564,31.38333</coordinates>
		</Point>
	</Placemark>
	<Placemark>
		<name>Ain 3 / Khirbet Asan</name>
		<description>another name for Ain 2</description>
		<styleUrl>#landpoint</styleUrl>
		<Point>
			<coordinates>34.797404,31.281372</coordinates>
		</Point>
	</Placemark>
	<Placemark>
		<name>Ain 3 / Horbat Anim</name>
		<description>another name for Ain 2</description>
		<styleUrl>#landpoint</styleUrl>
		<Point>
			<coordinates>35.063521,31.353601</coordinates>
		</Point>
	</Placemark>
	<Placemark>
		<name>Ain 3 / Tell Beit Mirsim</name>
		<description>another name for Ain 2</description>
		<styleUrl>#landpoint</styleUrl>
		<Point>
			<coordinates>34.9098,31.4558</coordinates>
		</Point>
	</Placemark>
	<Placemark>
		<name>Ain 3 / Tel Goded</name>
		<description>another name for Ain 2</description>
		<styleUrl>#landpoint</styleUrl>
		<Point>
			<coordinates>34.916611,31.633361</coordinates>
		</Point>
	</Placemark>
	<Placemark>
		<name>Ain 3 / Khirbet Muleh</name>
		<description>another name for Ain 2</description>
		<styleUrl>#landpoint</styleUrl>
		<Point>
			<coordinates>34.646389,31.29</coordinates>
		</Point>
	</Placemark>
</Folder>
</Document>
</kml>